Name,Latitude,Longitude,geometry
HIGHLINE BALLROOM,40.74303486465727,-74.00572711889915,POINT (-74.00572711889915 40.74303486465727)
HARLEM YMCA,40.81470932883609,-73.94288624913104,POINT (-73.94288624913104 40.81470932883609)
STEPHEN A SCHWARZMAN BUILDING NY PUBLIC LIBRARY,40.75315009501742,-73.98219384698027,POINT (-73.98219384698027 40.75315009501742)
EDITH AND CARL MARKS JEWISH COMMUNITY HOUSE OF BENSONHURST,40.60626108806454,-73.98975819401576,POINT (-73.98975819401576 40.60626108806454)
STATEN ISLAND HISTORICAL SOCIETY MUSEUM,40.570953457472704,-74.14566897964794,POINT (-74.14566897964794 40.570953457472704)
SOHO PLAYHOUSE,40.7264804878632,-74.00436228010118,POINT (-74.00436228010118 40.7264804878632)
LAURELTON LIBRARY,40.67691759212291,-73.74561144581129,POINT (-73.74561144581129 40.67691759212291)
ANNE FRANK CENTER USA,40.7211354539783,-73.9996308758439,POINT (-73.9996308758439 40.7211354539783)
ST GEORGE LIBRARY CENTER,40.64179934792793,-74.07667836326034,POINT (-74.07667836326034 40.64179934792793)
AMC MAGIC JOHNSON HARLEM 9 THEATRE,40.80971138800985,-73.95178625603924,POINT (-73.95178625603924 40.80971138800985)
GLENDALE LIBRARY,40.70258524585806,-73.87574434742926,POINT (-73.87574434742926 40.70258524585806)
REGO PARK LIBRARY,40.72731835812635,-73.86445890460773,POINT (-73.86445890460773 40.72731835812635)
QUEENS THEATRE IN THE PARK,40.744161726512445,-73.84436627748488,POINT (-73.84436627748488 40.744161726512445)
GRAMERCY THEATRE,40.7398343587358,-73.98495825719759,POINT (-73.98495825719759 40.7398343587358)
BROADHURST THEATRE,40.75822334042331,-73.98765508915673,POINT (-73.98765508915673 40.75822334042331)
STAPLETON LIBRARY,40.62625652271908,-74.0778638563019,POINT (-74.0778638563019 40.626256522719075)
NATIONAL MUSEUM OF MATHEMATICS,40.74329721250752,-73.98737765798496,POINT (-73.98737765798496 40.74329721250752)
NORTH SHORE TOWERS CINEMAS,40.75680084925773,-73.71451510324466,POINT (-73.71451510324466 40.75680084925773)
WOODLAWN HEIGHTS LIBRARY,40.90048495173066,-73.8679554716049,POINT (-73.8679554716049 40.90048495173066)
SEWARD PARK LIBRARY,40.71439096351296,-73.98847534512143,POINT (-73.98847534512143 40.71439096351296)
SALVATION ARMY BROOKLYN BUSHWICK CORPS COMMUNITY CENTER,40.689368211877614,-73.91725888198715,POINT (-73.91725888198715 40.689368211877614)
FAR ROCKAWAY LIBRARY,40.60428270455443,-73.75247271367905,POINT (-73.75247271367905 40.60428270455443)
BROADWAY THEATRE,40.76322011663417,-73.9832660789174,POINT (-73.9832660789174 40.76322011663417)
LOWER EAST SIDE TENEMENT MUSEUM,40.718766386451136,-73.99005020480182,POINT (-73.99005020480182 40.718766386451136)
ST ALBANS LIBRARY,40.69249997115147,-73.76007289407084,POINT (-73.76007289407084 40.69249997115147)
ROCHDALE VILLAGE LIBRARY,40.6728872334014,-73.77060702058525,POINT (-73.77060702058525 40.6728872334014)
HELEN HAYES THEATRE,40.75790303626042,-73.98777304348597,POINT (-73.98777304348597 40.75790303626042)
NATIONAL JAZZ MUSEUM IN HARLEM,40.80991815899645,-73.94307845582256,POINT (-73.94307845582256 40.80991815899645)
CYPRESS HILLS LIBRARY,40.67267071604365,-73.87402151589248,POINT (-73.87402151589248 40.67267071604365)
CEPHALOS CEPHALONIAN SOCIETY OF AMERICA,40.77542629798714,-73.90264231579364,POINT (-73.90264231579364 40.77542629798714)
UA COURT ST THEATRE,40.69064274459852,-73.99228221560261,POINT (-73.99228221560261 40.69064274459852)
INTERNATIONAL CENTER OF PHOTOGRAPHY SCHOOL & LIBRARY,40.754838308153744,-73.982672287056,POINT (-73.982672287056 40.754838308153744)
MUSEUM OF ILLUSIONS,40.73962346072146,-74.00290092569651,POINT (-74.00290092569651 40.73962346072146)
STONE AVENUE LIBRARY,40.66449962787956,-73.90524945431615,POINT (-73.90524945431615 40.66449962787956)
DIA ART FOUNDATION CHELSEA GALLERY,40.74784552981591,-74.00616791005561,POINT (-74.00616791005561 40.747845529815905)
JAMAICA BAY LIBRARY,40.63446013919277,-73.8892436304479,POINT (-73.8892436304479 40.63446013919277)
WATERFRONT MUSEUM,40.67517954464381,-74.01835407283815,POINT (-74.01835407283815 40.675179544643804)
SOUTH BEACH LIBRARY,40.59580257061058,-74.06298045406159,POINT (-74.06298045406159 40.59580257061058)
AMC LOEWS FRESH MEADOWS THEATRE,40.741097922283,-73.78371226219363,POINT (-73.78371226219363 40.741097922283)
THE ALLEN ROOM,40.76834840438108,-73.98281607215036,POINT (-73.98281607215036 40.76834840438108)
DIZZY'S CLUB COCA-COLA,40.768401352189365,-73.98285757748766,POINT (-73.98285757748766 40.768401352189365)
NEW MUSEUM OF CONTEMPORARY ART,40.72235665321625,-73.99292788162425,POINT (-73.99292788162425 40.72235665321625)
CONFERENCE HOUSE,40.50312875190731,-74.2532188246728,POINT (-74.2532188246728 40.50312875190731)
AMC THEATRE VILLAGE,40.73163015296773,-73.98872527356934,POINT (-73.98872527356934 40.73163015296773)
STATEN ISLAND MUSEUM,40.644632327738016,-74.10271861047026,POINT (-74.10271861047026 40.644632327738016)
MUSEUM OF ARTS AND DESIGN,40.767404199413065,-73.98198599515705,POINT (-73.98198599515705 40.767404199413065)
LIBRARY FOR PERFORMING ARTS,40.773639761393525,-73.98483602963378,POINT (-73.98483602963378 40.773639761393525)
GREENWICH VILLAGE CENTER,40.7293971703324,-73.99962443364376,POINT (-73.99962443364376 40.7293971703324)
HUGUENOT PARK LIBRARY,40.53407637936379,-74.19323417688231,POINT (-74.19323417688231 40.53407637936379)
YMCA CHINATOWN HESTER STREET CENTER,40.71620056260074,-73.99333423093209,POINT (-73.99333423093209 40.71620056260074)
GEORGE BRUCE LIBRARY,40.813787041379925,-73.95702546866862,POINT (-73.95702546866862 40.813787041379925)
INWOOD LIBRARY,40.865748720728114,-73.92586290958029,POINT (-73.92586290958029 40.865748720728114)
INTREPID SEA AIR & SPACE MUSEUM,40.76456087038572,-74.00036564228888,POINT (-74.00036564228888 40.76456087038572)
LITTLE SHUBERT THEATRE,40.7585928213565,-73.99389046871339,POINT (-73.99389046871339 40.7585928213565)
NYC CENTER THEATER,40.76381687610509,-73.97959023790415,POINT (-73.97959023790415 40.76381687610509)
EUGENE O'NEILL THEATRE,40.761108604157,-73.98573873464508,POINT (-73.98573873464508 40.761108604156995)
AMC BAY PLAZA CINEMA 13,40.86700657195969,-73.82500821280667,POINT (-73.82500821280667 40.86700657195969)
RICHMONDTOWN LIBRARY,40.56655747693461,-74.13856045182267,POINT (-74.13856045182267 40.56655747693461)
ASTORIA LIBRARY,40.7723574574962,-73.92872093420603,POINT (-73.92872093420603 40.7723574574962)
JOYCE THEATRE,40.7428074664126,-74.00057407712175,POINT (-74.00057407712175 40.7428074664126)
CENTER FOR BOOK ARTS,40.744809857522405,-73.98989316555911,POINT (-73.98989316555911 40.744809857522405)
13TH STREET REPERTORY,40.736101792697504,-73.99654904459304,POINT (-73.99654904459304 40.736101792697504)
NEW LOTS LIBRARY,40.66514570562563,-73.8860717559506,POINT (-73.8860717559506 40.66514570562563)
UKRAINIAN MUSEUM,40.72773383074895,-73.98970714095991,POINT (-73.98970714095991 40.72773383074895)
ROSEDALE LIBRARY,40.659950886653945,-73.73989771445258,POINT (-73.73989771445258 40.659950886653945)
DEKALB LIBRARY,40.69484298065176,-73.92838808726356,POINT (-73.92838808726356 40.69484298065176)
NEW WORLD STAGES,40.76276855075423,-73.98760505831338,POINT (-73.98760505831338 40.76276855075423)
REGAL UNION SQUARE STADIUM 14,40.73408287529333,-73.99062811615492,POINT (-73.99062811615492 40.73408287529333)
ELDRIDGE STREET MUSEUM,40.71474244945652,-73.99347422923512,POINT (-73.99347422923512 40.71474244945652)
CORT THEATRE,40.75913148925073,-73.98303877016926,POINT (-73.98303877016926 40.75913148925073)
KING MANOR MUSEUM,40.70303807791649,-73.80375614478298,POINT (-73.80375614478298 40.70303807791649)
CINEMA VILLAGE THEATRE,40.734021114172606,-73.99338463942682,POINT (-73.99338463942682 40.734021114172606)
STUDIO 54,40.76440130450189,-73.98375310434135,POINT (-73.98375310434135 40.76440130450189)
WOODHAVEN LIBRARY,40.69453115304731,-73.86145741525202,POINT (-73.86145741525202 40.69453115304731)
BEDFORD LIBRARY,40.6818017989516,-73.95614870688539,POINT (-73.95614870688539 40.681801798951604)
MUSEUM OF JEWISH HERITAGE,40.70612233109672,-74.01843992907635,POINT (-74.01843992907635 40.706122331096715)
BERNARD B JACOBS THEATRE,40.75868594711576,-73.98777134038669,POINT (-73.98777134038669 40.75868594711576)
MUSEUM OF THE MOVING IMAGE,40.75625042190911,-73.92395120137999,POINT (-73.92395120137999 40.75625042190911)
MANHATTAN CTR AUDITORIUM,40.75291145029289,-73.99418761418657,POINT (-73.99418761418657 40.75291145029289)
ATRIUM STADIUM CINEMAS,40.55963512448601,-74.16382591674052,POINT (-74.16382591674052 40.55963512448601)
MELVILLE GALLERY,40.70739534801294,-74.0033139851475,POINT (-74.0033139851475 40.70739534801294)
MIDDLE VILLAGE LIBRARY,40.71294642191531,-73.88085639366848,POINT (-73.88085639366848 40.71294642191531)
MUSEUM OF CONTEMPORARY ART,40.7582053007315,-73.9985785106675,POINT (-73.9985785106675 40.7582053007315)
BROOKLYN HEIGHTS LIBRARY TEMPORARY,40.69412975474104,-73.99390583234651,POINT (-73.99390583234651 40.694129754741034)
NICHOLAS ROERICH MUSEUM,40.80287691415787,-73.96904596560137,POINT (-73.96904596560137 40.80287691415787)
RAVENSWOOD LIBRARY,40.7606799510647,-73.93640396886002,POINT (-73.93640396886002 40.7606799510647)
CINEMART THEATRE,40.71001029157684,-73.84671594454863,POINT (-73.84671594454863 40.710010291576836)
SKYSCRAPER MUSEUM,40.7057559127121,-74.01763091788693,POINT (-74.01763091788693 40.7057559127121)
PERFORMING GARAGE,40.7223447725864,-74.00295470555584,POINT (-74.00295470555584 40.722344772586396)
CENTRAL ADULT LEARNING CENTER QUEENS LIBRARY,40.70594635502258,-73.79438609942015,POINT (-73.79438609942015 40.70594635502258)
ARLINGTON LIBRARY,40.68066851260352,-73.88725176325929,POINT (-73.88725176325929 40.68066851260352)
LEFRAK CITY LIBRARY,40.73737063420375,-73.8612617456782,POINT (-73.8612617456782 40.73737063420375)
RUGBY LIBRARY,40.64861929265024,-73.9303565303991,POINT (-73.9303565303991 40.64861929265024)
INTEGRATED COMMUNITY CENTER VICTORY BLVD,40.63084812650083,-74.08869691679062,POINT (-74.08869691679062 40.63084812650083)
LOEWS THEATRE 34 ST,40.75236410343145,-73.99445776653688,POINT (-73.99445776653688 40.75236410343145)
DYKER LIBRARY,40.61636119430228,-74.01189611119167,POINT (-74.01189611119167 40.61636119430228)
"CINEMA 1, 2  & 3 THEATRES",40.76184410906479,-73.96605142096708,POINT (-73.96605142096708 40.76184410906479)
KENSINGTON LIBRARY,40.63130327688883,-73.975469676827,POINT (-73.975469676827 40.63130327688883)
RADIO CITY MUSIC HALL,40.76002144954684,-73.97995089407885,POINT (-73.97995089407885 40.76002144954684)
WOODSIDE LIBRARY,40.74534643190195,-73.90971595222862,POINT (-73.90971595222862 40.74534643190195)
